City_ID,City,Country,Lat,Lng,Max Temp,Humidity,Cloudiness,Wind Speed,Current Description
0,Oparino,RU,59.8518,48.2783,34.59,97,81,3.87,broken clouds
1,Rikitea,PF,-23.1203,-134.9692,74.82,75,17,1.7,light rain
2,Fairbanks,US,64.8378,-147.7164,67.48,33,75,16.11,broken clouds
3,La Primavera,CO,5.4906,-70.4092,76.66,90,84,3.76,broken clouds
4,Lebu,CL,-37.6167,-73.65,47.68,82,37,16.51,scattered clouds
5,Thompson,CA,55.7435,-97.8558,60.96,36,40,10.36,scattered clouds
6,Hobart,AU,-42.8794,147.3294,50.25,93,40,8.05,scattered clouds
7,Tuktoyaktuk,CA,69.4541,-133.0374,33.8,80,75,9.22,broken clouds
8,Zhangye,CN,38.9342,100.4517,68.5,31,88,2.48,overcast clouds
9,Summerside,CA,46.3959,-63.7876,59.13,36,77,16.11,broken clouds
10,Mwaro,BI,-3.5,29.6667,54.48,88,100,2.15,overcast clouds
11,Anloga,GH,5.7947,0.8973,80.91,77,40,8.79,scattered clouds
12,Poum,NC,-20.2333,164.0167,77.22,71,41,6.49,scattered clouds
13,Cape Town,ZA,-33.9258,18.4232,61.21,97,100,5.75,overcast clouds
14,Ushuaia,AR,-54.8,-68.3,40.66,81,40,35.68,scattered clouds
15,Pacific Grove,US,36.6177,-121.9166,75.31,81,20,14.0,few clouds
16,Bambous Virieux,MU,-20.3428,57.7575,70.05,88,20,3.44,few clouds
17,Yellowknife,CA,62.456,-114.3525,57.72,30,20,6.91,few clouds
18,Broken Hill,AU,-31.95,141.4333,59.43,74,91,4.0,overcast clouds
19,Mataura,NZ,-46.1927,168.8643,45.48,75,26,2.66,scattered clouds
20,Hilo,US,19.7297,-155.09,88.29,69,0,12.66,clear sky
21,Barrow,US,71.2906,-156.7887,33.82,86,0,16.11,clear sky
22,Sao Felix Do Xingu,BR,-6.6447,-51.995,71.76,79,7,3.13,clear sky
23,Nogliki,RU,51.8333,143.1667,53.6,64,18,12.35,few clouds
24,Castro,BR,-24.7911,-50.0119,55.09,77,0,3.76,clear sky
25,Pundaguitan,PH,6.3711,126.1689,79.52,78,100,3.13,overcast clouds
26,Khatanga,RU,71.9667,102.5,30.22,79,52,6.22,broken clouds
27,Evensk,RU,61.95,159.2333,44.94,76,100,2.51,overcast clouds
28,Lao Cai,VN,22.4833,103.95,79.61,87,72,0.47,broken clouds
29,Pevek,RU,69.7008,170.3133,31.5,93,58,9.15,broken clouds
30,Busselton,AU,-33.65,115.3333,54.45,84,0,5.53,clear sky
31,Cerritos,US,33.8583,-118.0648,89.64,69,20,12.66,few clouds
32,Norman Wells,CA,65.282,-126.8329,55.44,62,75,5.75,broken clouds
33,Vaini,TO,-21.2,-175.2,82.56,74,40,8.05,scattered clouds
34,Albany,US,42.6001,-73.9662,72.18,54,99,5.23,overcast clouds
35,Atambua,ID,-9.1061,124.8925,78.17,74,100,4.18,overcast clouds
36,Mar Del Plata,AR,-38.0023,-57.5575,50.95,58,20,4.0,few clouds
37,Svetlyy,RU,54.675,20.1347,47.97,91,31,6.24,scattered clouds
38,Clyde River,CA,70.4692,-68.5914,19.63,86,100,20.71,light snow
39,Punta Arenas,CL,-53.15,-70.9167,42.91,75,40,32.21,scattered clouds
40,Chokurdakh,RU,70.6333,147.9167,31.5,72,79,10.36,broken clouds
41,Bluff,NZ,-46.6,168.3333,45.81,64,70,4.34,broken clouds
42,Aksum,ET,14.1245,38.7244,65.16,45,99,3.96,overcast clouds
43,Port Alfred,ZA,-33.5906,26.891,60.19,93,29,3.0,light rain
44,Hithadhoo,MV,-0.6,73.0833,83.37,65,100,4.7,overcast clouds
45,Tecoanapa,MX,16.5167,-98.75,83.97,71,85,4.72,overcast clouds
46,Tsumeb,NA,-19.2333,17.7167,57.29,35,0,5.41,clear sky
47,Butaritari,KI,3.0707,172.7902,81.5,76,94,18.72,overcast clouds
48,Bredasdorp,ZA,-34.5322,20.0403,58.15,95,96,3.06,light rain
49,Kuna,US,43.4918,-116.4201,82.02,26,0,9.22,clear sky
50,Zambezi,ZM,-13.5432,23.1047,52.14,50,0,2.39,clear sky
51,Olga,RU,43.7444,135.2892,52.02,84,100,9.33,light rain
52,Antalaha,MG,-14.9003,50.2788,69.21,90,7,5.95,clear sky
53,Tiksi,RU,71.6872,128.8694,24.94,86,97,9.37,overcast clouds
54,Souillac,MU,-20.5167,57.5167,70.18,88,20,3.44,few clouds
55,Cherskiy,RU,68.75,161.3,43.56,62,37,13.33,scattered clouds
56,Hobyo,SO,5.3505,48.5268,78.96,81,84,22.77,broken clouds
57,Ust-Kuyga,RU,70.0167,135.6,31.3,80,86,12.41,overcast clouds
58,Lufilufi,WS,-13.8745,-171.5986,85.78,78,54,16.2,broken clouds
59,Shagonar,RU,51.5333,92.8,64.47,71,90,1.95,overcast clouds
60,Paamiut,GL,61.994,-49.6678,33.91,65,16,8.7,few clouds
61,Hailar,CN,49.2,119.7,66.0,27,88,4.09,overcast clouds
62,Odlabari,IN,26.8333,88.6167,74.23,85,71,3.18,broken clouds
63,San Patricio,US,28.017,-97.5169,87.67,68,100,5.55,overcast clouds
64,New Norfolk,AU,-42.7826,147.0587,49.91,87,65,2.68,broken clouds
65,San Joaquin,US,37.9333,-121.3011,102.27,15,0,4.61,clear sky
66,Tasiilaq,GL,65.6145,-37.6368,37.56,83,100,2.75,overcast clouds
67,Puerto Ayora,EC,-0.7393,-90.3518,72.55,91,65,9.42,broken clouds
68,Saldanha,ZA,-33.0117,17.9442,60.85,91,1,3.76,clear sky
69,Carnarvon,AU,-24.8667,113.6333,71.87,50,100,4.12,overcast clouds
70,Saint Anthony,US,45.0205,-93.218,52.25,93,100,10.36,mist
71,Berlevag,NO,70.8578,29.0864,49.95,53,36,3.44,scattered clouds
72,San Isidro,PE,-12.1167,-77.05,67.01,74,100,6.91,overcast clouds
73,Kapaa,US,22.0752,-159.319,82.38,71,40,13.8,scattered clouds
74,Ponta Do Sol,PT,32.6667,-17.1,65.71,74,99,5.57,overcast clouds
75,Hamilton,US,39.1834,-84.5333,77.77,93,100,4.61,overcast clouds
76,Oranjemund,NA,-28.55,16.4333,54.23,93,3,4.68,clear sky
77,Port Blair,IN,11.6667,92.75,82.72,82,99,13.76,overcast clouds
78,Leningradskiy,RU,69.3833,178.4167,49.06,59,100,6.67,overcast clouds
79,Avarua,CK,-21.2078,-159.775,82.45,69,100,3.44,overcast clouds
80,Qaanaaq,GL,77.484,-69.3632,15.71,88,47,3.62,scattered clouds
81,Hermanus,ZA,-34.4187,19.2345,58.8,92,89,2.68,light rain
82,Dikson,RU,73.5069,80.5464,19.74,96,83,4.65,broken clouds
83,Narsaq,GL,60.9167,-46.05,44.82,62,18,2.82,few clouds
84,Kralendijk,BQ,12.15,-68.2667,82.38,78,40,23.02,scattered clouds
85,Port Hedland,AU,-20.3167,118.5667,71.65,64,51,12.66,broken clouds
86,Nikolskoye,RU,59.7035,30.7861,40.91,84,85,4.99,overcast clouds
87,Byron Bay,AU,-28.65,153.6167,63.72,83,49,8.68,scattered clouds
88,Emba,KZ,48.8264,58.1442,51.48,64,63,11.43,broken clouds
89,Bolitoc,PH,15.7395,119.8769,83.8,75,86,5.01,overcast clouds
90,Port Elizabeth,ZA,-33.918,25.5701,61.09,88,75,12.66,light rain
91,Hami,CN,42.8,93.45,80.31,12,100,2.19,overcast clouds
92,Port Moresby,PG,-9.4431,147.1797,74.62,94,100,11.5,overcast clouds
93,Kastamonu,TR,41.5,33.6667,45.46,85,0,1.97,clear sky
94,Acapulco,MX,16.8634,-99.8901,85.82,66,75,9.22,broken clouds
95,Rioja,AR,-29.4111,-66.8507,57.38,61,70,6.55,broken clouds
96,Jamestown,US,42.097,-79.2353,72.99,61,40,12.66,scattered clouds
97,Mahebourg,MU,-20.4081,57.7,70.09,88,20,3.44,few clouds
98,Muroto,JP,33.2833,134.15,71.02,83,96,9.08,overcast clouds
99,Jalu,LY,29.0331,21.5482,83.79,11,0,8.59,clear sky
100,Elhovo,BG,42.1667,26.5667,61.21,89,68,1.48,broken clouds
101,Urumqi,CN,43.801,87.6005,76.15,36,0,2.24,clear sky
102,Asau,RO,46.4333,26.4,63.95,75,48,6.62,scattered clouds
103,Pont-Sainte-Maxence,FR,49.3017,2.6047,61.81,83,100,9.33,overcast clouds
104,Siniscola,IT,40.5719,9.6922,69.35,87,94,5.66,overcast clouds
105,Moranbah,AU,-22.0016,148.0466,68.07,70,97,13.78,overcast clouds
106,Brae,GB,60.3964,-1.353,47.79,81,40,19.51,scattered clouds
107,Aljezur,PT,37.3191,-8.8033,61.09,62,12,7.43,few clouds
108,Baykit,RU,61.67,96.37,52.09,76,75,4.14,broken clouds
109,Gohpur,IN,26.8833,93.6333,75.87,88,94,1.36,overcast clouds
110,Saint-Augustin,CA,51.226,-58.6502,49.53,81,100,6.22,overcast clouds
111,Constitucion,CL,-35.3333,-72.4167,50.29,75,59,7.65,broken clouds
112,Grand Gaube,MU,-20.0064,57.6608,70.2,65,45,10.92,scattered clouds
113,Geraldton,AU,-28.7667,114.6,61.21,77,100,11.5,overcast clouds
114,Saint-Georges,GD,12.0564,-61.7485,82.08,74,75,17.27,broken clouds
115,Longyearbyen,SJ,78.2186,15.6401,37.24,87,75,8.05,broken clouds
116,Uetendorf,CH,46.7739,7.5725,53.91,79,75,1.14,broken clouds
117,Saint-Joseph,RE,-21.3667,55.6167,70.18,76,18,2.71,few clouds
118,Tuatapere,NZ,-46.1333,167.6833,47.71,68,65,0.81,broken clouds
119,Palmerston,AU,-12.486,130.9833,79.93,84,75,5.75,broken clouds
120,Harrismith,ZA,-28.2728,29.1295,45.5,67,0,5.17,clear sky
121,Grinnell,US,41.743,-92.7224,62.58,98,100,11.5,overcast clouds
122,Babushkin,RU,51.7122,105.8647,55.11,57,39,2.39,scattered clouds
123,Trat,TH,12.5,102.5,85.87,92,100,0.98,overcast clouds
124,Faanui,PF,-16.4833,-151.75,80.96,67,1,11.92,clear sky
125,Ilulissat,GL,69.2167,-51.1,35.62,55,100,0.0,overcast clouds
126,Alugan,PH,12.2188,125.4808,83.5,76,98,7.96,overcast clouds
127,Opuwo,NA,-18.0607,13.84,57.24,33,0,4.7,clear sky
128,Tsiroanomandidy,MG,-18.7667,46.0333,60.51,82,0,2.59,clear sky
129,Arraial Do Cabo,BR,-22.9661,-42.0278,69.76,83,0,6.91,clear sky
130,Saint-Philippe,RE,-21.3585,55.7679,71.19,77,6,5.01,clear sky
131,Kidal,ML,18.4411,1.4078,87.58,31,87,13.8,overcast clouds
132,Codrington,AU,-38.2667,141.9667,58.69,83,73,13.85,broken clouds
133,Aksu,CN,41.1231,80.2644,73.67,30,18,4.74,few clouds
134,Sabha,LY,27.0377,14.4283,86.61,11,64,7.87,broken clouds
135,Dhidhdhoo,MV,6.8833,73.1,82.35,77,100,10.54,light rain
136,Flinders,AU,-34.5833,150.8552,60.39,93,100,5.99,overcast clouds
137,Ribeira Grande,PT,38.5167,-28.7,62.24,76,8,15.19,clear sky
138,Emerald,AU,-23.5333,148.1667,68.34,74,5,8.23,clear sky
139,Aksarka,RU,66.5606,67.7975,43.99,66,100,12.97,overcast clouds
140,Georgetown,MY,5.4112,100.3354,80.53,87,20,2.3,few clouds
141,Port Lincoln,AU,-34.7333,135.8667,60.78,77,10,10.11,clear sky
142,Atuona,PF,-9.8,-139.0333,78.44,76,15,19.86,few clouds
143,Saskylakh,RU,71.9167,114.0833,25.47,88,83,4.29,broken clouds
144,Baculin,PH,7.4525,126.5842,75.27,96,100,2.33,overcast clouds
145,Marsh Harbour,BS,26.5412,-77.0636,78.22,72,46,15.64,scattered clouds
146,Moree,AU,-29.4667,149.85,63.28,62,32,5.55,scattered clouds
147,Vardo,NO,70.3705,31.1107,39.18,87,81,9.22,broken clouds
148,Isangel,VU,-19.55,169.2667,81.1,68,14,4.45,few clouds
149,Fort Nelson,CA,58.8053,-122.7002,54.99,58,75,0.0,broken clouds
150,Listvyanskiy,RU,54.4399,83.4984,60.94,72,61,13.15,broken clouds
151,Tessalit,ML,20.1986,1.0114,86.95,28,97,7.76,overcast clouds
152,Lagoa,PT,39.05,-27.9833,61.03,78,0,13.78,clear sky
153,Kavaratti,IN,10.5669,72.642,82.94,79,71,10.71,broken clouds
154,Newport,GB,51.5877,-2.9984,55.51,88,39,7.74,scattered clouds
155,Vezirkopru,TR,41.1436,35.4547,50.49,87,0,0.87,clear sky
156,Enshi,CN,30.3,109.4833,63.0,96,100,0.92,overcast clouds
157,Ocos,GT,14.5094,-92.1933,81.0,79,100,13.6,overcast clouds
158,Gambiran,ID,-6.7988,111.4951,78.01,85,100,3.2,overcast clouds
159,Guerrero Negro,MX,27.9769,-114.0611,69.49,61,0,17.11,clear sky
160,Namatanai,PG,-3.6667,152.4333,84.09,66,88,3.18,overcast clouds
161,Lavrentiya,RU,65.5833,-171.0,41.79,84,100,7.34,overcast clouds
162,Okhotsk,RU,59.3833,143.3,35.85,96,100,4.61,overcast clouds
163,Victoria,HK,22.2855,114.1577,80.65,91,33,5.01,scattered clouds
164,Coahuayana,MX,18.7333,-103.6833,81.77,66,99,6.35,overcast clouds
165,Olafsvik,IS,64.8945,-23.7142,42.82,80,100,8.61,overcast clouds
166,Dakar,SN,14.6937,-17.4441,71.73,88,40,9.22,scattered clouds
167,Iguape,BR,-24.7081,-47.5553,64.71,87,0,5.26,clear sky
168,Ostrovnoy,RU,68.0531,39.5131,34.84,99,45,7.05,scattered clouds
169,Rudnya,RU,54.947,31.0934,49.53,86,96,6.8,overcast clouds
170,La Crosse,US,43.8014,-91.2396,58.41,94,100,3.44,overcast clouds
171,Rio Grande,BR,-32.035,-52.0986,60.94,98,100,7.85,light rain
172,Chicama,PE,-7.8447,-79.1469,61.34,81,12,6.6,few clouds
173,Kabinda,CD,-6.1333,24.4833,65.43,97,77,2.24,broken clouds
174,Bengkulu,ID,-3.8004,102.2655,74.64,80,100,4.12,overcast clouds
175,Lively,CA,46.4334,-81.1498,62.02,59,100,4.56,moderate rain
176,Cairo,EG,30.0626,31.2497,74.16,60,0,5.75,clear sky
177,Bembereke,BJ,10.2283,2.6634,75.13,75,62,7.0,broken clouds
178,Ossora,RU,59.2353,163.0719,39.6,88,100,4.74,overcast clouds
179,Kampot,KH,10.6167,104.1833,84.25,83,100,9.8,overcast clouds
180,Provideniya,RU,64.3833,-173.3,35.71,87,20,6.71,fog
181,Aklavik,CA,68.2191,-135.0107,50.18,53,43,1.14,scattered clouds
182,Kaitangata,NZ,-46.2817,169.8464,45.48,70,88,8.21,overcast clouds
183,Agadir,MA,30.4202,-9.5982,64.85,78,94,7.0,overcast clouds
184,Killin,US,33.6123,-91.7412,78.89,61,40,11.5,scattered clouds
185,Aquiraz,BR,-3.9014,-38.3911,80.19,84,91,7.18,overcast clouds
186,Ola,RU,59.5833,151.2833,41.14,98,100,11.01,light rain
187,Kodiak,US,57.79,-152.4072,51.31,76,0,9.22,clear sky
188,Ketchikan,US,55.3422,-131.6461,61.27,41,75,8.05,broken clouds
189,Verkhnevilyuysk,RU,63.4453,120.3167,40.46,68,58,7.99,broken clouds
190,Murmashi,RU,68.8154,32.8115,39.61,75,0,4.47,clear sky
191,Verkh-Suetka,RU,53.3,80.05,61.36,59,5,10.16,clear sky
192,Edgewater,US,28.9889,-80.9023,83.12,74,20,19.57,few clouds
193,Laguna,US,38.421,-121.4238,103.95,17,0,4.61,clear sky
194,Mangalam,IN,9.7667,78.6667,83.3,75,5,8.1,clear sky
195,Gao,ML,16.6362,1.637,87.19,27,60,5.88,broken clouds
196,Salalah,OM,17.0151,54.0924,82.49,83,40,4.61,scattered clouds
197,Batagay-Alyta,RU,67.8006,130.4114,26.74,82,93,15.64,overcast clouds
198,Takoradi,GH,4.8845,-1.7554,78.62,81,100,4.45,overcast clouds
199,Pontianak,ID,-0.0333,109.3333,73.38,94,40,2.3,light rain
200,Belmonte,BR,-15.8631,-38.8828,73.2,84,18,10.42,few clouds
201,Rawson,AR,-43.3002,-65.1023,43.77,36,0,9.26,clear sky
202,Vaitape,PF,-16.5167,-151.75,80.87,67,4,11.95,clear sky
203,Syrskoye,RU,52.5744,39.4966,43.61,81,79,7.27,broken clouds
204,College,US,64.8569,-147.8028,67.46,33,75,16.11,broken clouds
205,Zhigansk,RU,66.7697,123.3711,33.98,71,51,24.76,broken clouds
206,Nalut,LY,30.3333,10.85,82.74,9,1,6.31,clear sky
207,Jiuquan,CN,39.7432,98.5174,63.68,15,100,5.7,overcast clouds
208,Sorland,NO,67.667,12.6934,46.26,89,98,13.15,overcast clouds
209,Port Hueneme,US,34.1478,-119.1951,89.51,77,100,11.5,overcast clouds
210,Voloshka,RU,61.3314,40.0858,36.03,98,95,6.4,overcast clouds
211,Kawalu,ID,-7.3817,108.2082,74.05,90,100,2.08,overcast clouds
212,Sitka,US,57.0531,-135.33,55.29,58,100,16.11,overcast clouds
213,Waingapu,ID,-9.6567,120.2641,81.48,77,99,11.36,overcast clouds
214,Vavuniya,LK,8.7514,80.4971,76.78,89,56,7.43,broken clouds
215,Sorong,ID,-0.8833,131.25,78.84,84,100,9.33,overcast clouds
216,Bethel,US,41.3712,-73.414,63.88,68,82,6.53,broken clouds
217,Sibolga,ID,1.7427,98.7792,77.11,77,100,3.02,overcast clouds
218,Qaqortoq,GL,60.7167,-46.0333,35.08,74,3,4.92,clear sky
219,Griffith,US,41.5284,-87.4237,75.29,76,75,24.16,moderate rain
220,Erzin,TR,36.9559,36.2,66.22,64,0,3.4,clear sky
221,Pocone,BR,-16.2567,-56.6228,76.89,50,5,2.68,clear sky
222,Basco,PH,20.4487,121.9702,83.41,78,100,10.54,overcast clouds
223,Japura,ID,-0.3167,102.35,74.64,98,100,2.26,overcast clouds
224,Klaksvik,FO,62.2266,-6.589,47.32,78,20,17.74,few clouds
225,Merauke,ID,-8.4667,140.3333,82.98,69,56,8.05,broken clouds
226,Los Llanos De Aridane,ES,28.6585,-17.9182,64.13,81,100,10.36,overcast clouds
227,Nouadhibou,MR,20.931,-17.0347,66.18,88,1,17.27,clear sky
228,Upernavik,GL,72.7868,-56.1549,24.15,61,87,5.7,overcast clouds
229,Nyakabindi,TZ,-2.6333,33.9833,62.37,96,98,4.29,light rain
230,East London,ZA,-33.0153,27.9116,63.7,71,30,14.92,scattered clouds
231,Havelock,US,34.8791,-76.9013,69.75,90,100,10.36,overcast clouds
232,Melo,UY,-32.3667,-54.1833,59.81,98,100,4.16,light rain
233,Srednekolymsk,RU,67.45,153.6833,48.79,55,27,16.69,scattered clouds
234,Camalu,MX,30.85,-116.0667,68.36,63,0,6.08,clear sky
235,Moengo,SR,5.6167,-54.4,74.53,97,47,2.53,scattered clouds
236,Jose Bonifacio,BR,-21.0528,-49.6883,72.66,45,0,6.8,clear sky
237,Gat,IL,31.61,34.7642,76.41,76,0,5.61,clear sky
238,Yantal,RU,56.8471,105.2542,55.96,82,81,9.26,broken clouds
239,Calama,CL,-22.4667,-68.9333,59.49,4,0,6.91,clear sky
240,Paraiso,CR,9.8383,-83.8656,67.42,98,100,0.85,overcast clouds
241,Areia Branca,BR,-4.9561,-37.1369,76.62,86,100,12.37,overcast clouds
242,Ukiah,US,39.1502,-123.2078,98.49,16,0,9.22,clear sky
243,Plouzane,FR,48.3833,-4.6167,55.45,97,100,9.22,light intensity drizzle
244,Rorvik,NO,64.8621,11.2373,49.05,75,100,9.73,overcast clouds
245,Hervey Bay,AU,-25.2986,152.8535,69.03,92,62,5.99,broken clouds
246,Pisco,PE,-13.7,-76.2167,64.45,77,20,3.44,few clouds
247,Hirara,JP,24.8,125.2833,75.47,100,75,6.91,shower rain
248,Solnechnyy,RU,50.7214,136.6319,65.77,38,39,3.69,scattered clouds
249,Talnakh,RU,69.4865,88.3972,31.21,81,77,4.0,broken clouds
250,Galle,LK,6.0367,80.217,79.3,85,78,8.08,broken clouds
251,Pringsewu,ID,-5.3582,104.9744,73.98,94,100,0.47,overcast clouds
252,Altamira,BR,-3.2033,-52.2064,76.51,80,80,2.68,broken clouds
253,Hambantota,LK,6.1241,81.1185,79.41,84,83,14.12,broken clouds
254,Ordynskoye,RU,54.3656,81.8994,61.57,72,2,11.99,clear sky
255,Jitra,MY,6.2681,100.4217,76.91,94,20,0.0,few clouds
256,Niltepec,MX,16.5667,-94.6167,85.32,64,95,8.23,overcast clouds
257,Liaozhong,CN,41.5061,122.7242,54.88,74,100,4.61,overcast clouds
258,Ati,TD,13.2154,18.3353,87.75,12,96,6.96,overcast clouds
259,Kattivakkam,IN,13.2167,80.3167,85.06,77,9,16.49,clear sky
260,Yenagoa,NG,4.9247,6.2642,74.77,95,99,3.24,light rain
261,Katobu,ID,-4.9408,122.5276,80.62,82,100,2.21,overcast clouds
262,Airai,TL,-8.9266,125.4092,66.11,77,99,3.15,overcast clouds
263,Syracuse,IT,37.0881,15.2792,67.59,60,32,1.34,scattered clouds
264,Sao Joao Da Barra,BR,-21.6403,-41.0511,71.73,79,0,9.84,clear sky
265,Skibbereen,IE,51.55,-9.2667,56.1,92,84,15.97,broken clouds
266,Impfondo,CG,1.6381,18.0667,70.77,98,99,0.87,light rain
267,Haines Junction,CA,60.7522,-137.5108,58.95,29,84,6.91,broken clouds
268,Krasnoselkup,RU,65.7,82.4667,40.03,71,2,9.62,clear sky
269,Abu Samrah,SY,35.3029,37.1841,67.42,42,0,3.69,clear sky
270,Huarmey,PE,-10.0681,-78.1522,64.49,85,18,7.27,few clouds
271,Honiara,SB,-9.4333,159.95,85.77,67,12,3.38,few clouds
272,El Sauzal,MX,31.9,-116.6833,66.78,67,32,5.14,scattered clouds
273,Killam,CA,52.7834,-111.8518,67.95,30,85,5.75,overcast clouds
274,Kavieng,PG,-2.5744,150.7967,83.62,68,100,7.29,overcast clouds
275,Vestmanna,FO,62.1564,-7.1664,45.52,76,75,13.8,light rain
276,Ialibu,PG,-6.2821,143.9935,66.54,69,66,2.84,broken clouds
277,Seydi,TM,39.4816,62.9137,75.33,37,45,20.6,scattered clouds
278,Marawi,PH,7.9986,124.2928,74.43,83,85,0.58,light rain
279,Zaozerne,UA,45.1582,33.2787,57.69,79,63,9.91,broken clouds
280,The Pas,CA,53.8251,-101.2541,69.82,35,75,10.36,broken clouds
281,Basse-Pointe,MQ,14.8695,-61.115,80.65,62,96,13.11,overcast clouds
282,Sioux Lookout,CA,50.1001,-91.917,60.87,44,100,9.22,overcast clouds
283,Maralal,KE,1.0968,36.698,57.85,87,99,0.2,overcast clouds
284,Sotnikovskoye,RU,45.0039,43.7772,50.16,79,21,5.3,few clouds
285,Angoche,MZ,-16.2325,39.9086,70.38,80,0,6.55,clear sky
286,Tsogni,GA,-2.7942,10.0988,72.68,93,14,4.7,few clouds
287,Cayenne,GF,4.9333,-52.3333,83.08,1,0,3.44,clear sky
288,Cincu,RO,45.9167,24.8,58.5,92,55,21.0,moderate rain
289,Craigieburn,AU,-37.6,144.95,58.96,86,75,20.71,broken clouds
290,Nanortalik,GL,60.1432,-45.2371,33.62,81,6,10.13,clear sky
291,Muyezerskiy,RU,63.9333,31.65,37.45,91,100,4.14,overcast clouds
292,The Valley,AI,18.217,-63.0578,82.26,74,40,12.66,scattered clouds
293,Yar-Sale,RU,66.8333,70.8333,39.16,73,92,12.77,overcast clouds
294,Iqaluit,CA,63.7506,-68.5145,15.53,66,75,21.85,broken clouds
295,Nerchinskiy Zavod,RU,51.3088,119.61,68.29,26,8,0.92,clear sky
296,Hasaki,JP,35.7333,140.8333,73.29,71,47,8.93,scattered clouds
297,Chililabombwe,ZM,-12.3648,27.8229,53.02,54,0,3.87,clear sky
298,Portland,US,45.5234,-122.6762,75.96,53,75,5.01,broken clouds
299,Morgan Hill,US,37.1305,-121.6544,92.55,37,0,16.11,clear sky
300,Dwarka,IN,22.2394,68.9678,81.5,80,6,15.99,clear sky
301,Severo-Kurilsk,RU,50.6789,156.125,41.0,92,100,5.39,overcast clouds
302,Atar,MR,20.5169,-13.0499,92.82,14,75,4.36,broken clouds
303,Inta,RU,66.0317,60.1659,52.95,67,100,23.44,overcast clouds
304,Jian,CN,27.1172,114.9793,71.65,97,98,5.77,moderate rain
305,Zhoucheng,CN,35.9122,116.3117,71.4,25,100,5.95,overcast clouds
306,Rawlins,US,41.7911,-107.2387,68.36,21,0,18.41,clear sky
307,Pec,XK,42.6591,20.2883,64.33,39,29,6.62,scattered clouds
308,Helong,CN,42.5397,128.9972,47.75,91,100,3.0,overcast clouds
309,Karema,TZ,-6.8205,30.4389,70.84,74,82,2.19,broken clouds
310,Uruzgan,AF,32.8333,66.0,69.82,12,26,6.76,scattered clouds
311,Alihe,CN,50.5667,123.7167,70.88,32,78,2.24,broken clouds
312,Bardiyah,LY,31.7561,25.0865,70.02,58,0,3.69,clear sky
313,Sao Filipe,CV,14.8961,-24.4956,71.13,80,5,8.5,clear sky
314,Te Anau,NZ,-45.4167,167.7167,43.12,77,10,0.96,clear sky
315,Mercedes,AR,-34.6515,-59.4307,44.78,85,88,4.63,overcast clouds
316,Grand Junction,US,39.0639,-108.5507,80.31,14,0,11.5,clear sky
317,Alyangula,AU,-13.8483,136.4192,81.03,61,15,10.94,few clouds
318,Meulaboh,ID,4.1363,96.1285,76.77,84,96,5.28,overcast clouds
319,Rocha,UY,-34.4833,-54.3333,51.57,94,100,13.09,overcast clouds
320,Tres Picos,MX,15.8667,-93.5333,84.07,73,100,7.36,overcast clouds
321,Ust-Nera,RU,64.5667,143.2,46.54,60,100,8.01,overcast clouds
322,Blizhne-Pesochnoye,RU,55.3456,42.1015,38.8,88,96,6.42,overcast clouds
323,Mandalgovi,MN,45.7625,106.2708,61.09,16,3,10.13,clear sky
324,Kankon,IN,15.0167,74.0167,82.2,85,100,9.8,overcast clouds
325,Polaniec,PL,50.4332,21.2812,52.92,97,75,1.01,broken clouds
326,Leshukonskoye,RU,64.8989,45.7622,43.07,96,100,6.98,overcast clouds
327,Lompoc,US,34.6391,-120.4579,73.0,59,0,11.5,clear sky
328,Shatsk,RU,54.0258,41.7119,41.52,66,90,7.27,overcast clouds
329,Adrar,MR,20.5022,-10.0711,88.43,13,1,8.48,clear sky
330,Esperance,AU,-33.8667,121.9,57.9,77,59,8.39,broken clouds
331,Laiyang,CN,36.9758,120.7136,69.28,30,3,12.48,clear sky
332,San Ramon De La Nueva Oran,AR,-23.1322,-64.326,73.42,73,58,2.84,broken clouds
333,Okato,NZ,-39.2,173.8833,59.92,100,57,5.97,broken clouds
334,Coquimbo,CL,-29.9533,-71.3436,55.13,100,0,4.61,clear sky
335,Tautira,PF,-17.7333,-149.15,79.63,71,40,9.78,scattered clouds
336,Sinnamary,GF,5.3833,-52.95,78.76,87,11,8.28,few clouds
337,Camana,PE,-16.6228,-72.7111,63.75,83,29,5.35,scattered clouds
338,Wellington,NZ,-41.2866,174.7756,52.07,83,100,14.97,overcast clouds
339,Fukue,JP,32.6881,128.8419,66.56,100,75,5.75,broken clouds
340,Broome,US,42.2506,-75.833,70.2,56,98,5.99,overcast clouds
341,Laredo,US,27.5064,-99.5075,84.49,45,0,5.75,clear sky
342,Bereda,ES,43.2686,-7.5406,51.58,99,28,4.45,scattered clouds
343,Mazagao,BR,-0.115,-51.2894,78.85,96,6,3.49,clear sky
344,Balvi,LV,57.1313,27.2658,54.39,82,100,2.8,overcast clouds
345,Sarakhs,IR,36.5449,61.1577,73.6,35,0,13.6,clear sky
346,San Andres,CO,12.5847,-81.7006,80.62,89,75,11.5,broken clouds
347,Launceston,AU,-41.45,147.1667,51.8,93,93,5.75,overcast clouds
348,Biltine,TD,14.5333,20.9167,83.88,8,54,8.32,broken clouds
349,La Ronge,CA,55.1001,-105.2842,62.85,34,40,5.75,scattered clouds
350,Sangar,RU,63.9242,127.4739,46.17,52,72,3.4,broken clouds
351,Luderitz,NA,-26.6481,15.1594,57.09,79,3,6.08,clear sky
352,Channel-Port Aux Basques,CA,47.5702,-59.1367,44.69,79,0,8.61,clear sky
353,Manta,EC,-0.95,-80.7333,74.98,73,40,13.8,scattered clouds
354,Marzuq,YE,14.4,46.4667,74.32,37,8,2.71,clear sky
355,San Cristobal,VE,7.7669,-72.225,75.38,90,100,2.98,overcast clouds
356,Askiz,RU,53.1319,90.5264,65.41,55,48,1.95,scattered clouds
357,Faya,SA,18.3851,42.4509,69.91,38,40,3.04,scattered clouds
358,Camamu,BR,-13.9447,-39.1039,70.74,92,50,6.17,scattered clouds
359,Porbandar,IN,21.6422,69.6093,81.55,80,14,12.93,few clouds
360,Saint George,US,37.1041,-113.5841,96.44,10,0,5.01,clear sky
361,Alakurtti,RU,66.9672,30.3491,41.63,69,99,3.87,overcast clouds
362,Bulanash,RU,57.2783,61.9965,47.48,96,27,4.68,scattered clouds
363,Nome,US,64.5011,-165.4064,51.17,71,0,14.97,clear sky
364,Aban,RU,56.67,96.06,56.98,64,29,9.53,scattered clouds
365,Mao,ES,39.8885,4.2658,59.56,88,0,5.75,clear sky
366,Kruisfontein,ZA,-34.0033,24.7314,58.86,86,41,11.01,light rain
367,Makakilo City,US,21.3469,-158.0858,81.68,51,75,16.11,broken clouds
368,Sobolevo,RU,54.4299,31.8996,52.5,81,93,6.73,overcast clouds
369,Chuy,UY,-33.6971,-53.4616,56.62,92,100,18.03,overcast clouds
370,Kijini,TZ,-5.85,39.3167,76.14,87,81,9.37,light rain
371,Alofi,NU,-19.0595,-169.9187,82.29,74,82,11.5,broken clouds
372,Kirovsk,UA,48.6375,38.6428,54.86,70,95,6.78,overcast clouds
373,Lorengau,PG,-2.0226,147.2712,83.73,69,100,2.33,overcast clouds
374,Akom,CM,2.6678,12.7109,67.93,98,94,1.25,overcast clouds
375,Trail,CA,49.0998,-117.7022,62.78,71,100,1.99,overcast clouds
376,Caceres,ES,39.522,-6.3748,57.7,44,6,4.83,clear sky
377,Khani,GE,41.9563,42.9566,40.57,89,7,6.35,clear sky
378,Micheweni,TZ,-4.9667,39.8333,77.49,86,38,9.93,light rain
379,Abu Zabad,SD,12.35,29.25,82.27,11,43,7.0,scattered clouds
380,Carutapera,BR,-1.195,-46.02,74.39,95,20,6.06,few clouds
381,Wajir,KE,1.7471,40.0573,75.72,79,29,9.71,scattered clouds
382,Wagar,SD,16.1525,36.2032,88.41,16,30,9.82,scattered clouds
383,Kathu,TH,7.9178,98.3332,82.22,75,96,11.7,overcast clouds
384,Dosso,NE,13.049,3.1937,90.68,33,27,7.72,scattered clouds
385,Berbera,SO,10.4396,45.0143,85.26,66,62,0.11,broken clouds
386,Kahului,US,20.8947,-156.47,82.42,61,40,19.57,scattered clouds
387,Del Rio,US,29.3627,-100.8968,87.91,20,0,6.91,clear sky
388,Sokolovyy,RU,51.5686,45.8331,44.56,45,94,4.05,overcast clouds
389,Garissa,KE,-0.4536,39.6401,75.25,86,65,11.54,broken clouds
390,Santiago Del Estero,AR,-27.7951,-64.2615,62.13,67,72,19.93,broken clouds
391,Manado,ID,1.487,124.8455,79.57,89,20,1.14,few clouds
392,Paita,PE,-5.0892,-81.1144,66.24,83,9,13.22,clear sky
393,Husavik,IS,66.0449,-17.3389,43.12,91,100,9.55,overcast clouds
394,Amalapuram,IN,16.5833,82.0167,80.65,92,38,3.29,scattered clouds
395,Quimperle,FR,47.8667,-3.55,57.97,94,100,5.75,overcast clouds
396,Abha,SA,18.2164,42.5053,69.62,37,20,0.0,few clouds
397,Duluth,US,46.7833,-92.1066,49.06,92,100,31.07,mist
398,Sevierville,US,35.8681,-83.5618,79.03,53,59,4.5,broken clouds
399,Tubuala,PA,9.5167,-79.0333,80.71,80,100,0.72,overcast clouds
400,Ahipara,NZ,-35.1667,173.1667,61.84,56,84,6.82,broken clouds
401,Kenai,US,60.5544,-151.2583,59.02,61,0,12.66,clear sky
402,Kudahuvadhoo,MV,2.6708,72.8944,82.33,73,79,9.17,broken clouds
403,Laukaa,RU,58.7372,29.8453,43.81,76,64,5.41,broken clouds
404,Mount Isa,AU,-20.7333,139.5,73.17,46,0,9.22,clear sky
405,Havre-Saint-Pierre,CA,50.2334,-63.5986,52.16,66,0,12.66,clear sky
406,Lata,PT,40.1629,-8.3327,58.08,76,27,3.94,scattered clouds
407,Pangnirtung,CA,66.1451,-65.7125,17.01,95,100,9.98,overcast clouds
408,Comodoro Rivadavia,AR,-45.8667,-67.5,40.86,42,0,6.91,clear sky
409,Kabansk,RU,52.0486,106.6528,62.92,40,4,2.33,clear sky
410,Arman,RU,59.7,150.1667,41.02,99,100,4.81,light rain
411,Camacha,PT,33.0833,-16.3333,62.02,72,75,11.5,broken clouds
412,Itaituba,BR,-4.2761,-55.9836,77.79,74,88,1.97,overcast clouds
413,Puri,IN,19.8,85.85,81.12,89,4,13.06,clear sky
414,Ballitoville,ZA,-29.539,31.2144,69.24,88,40,3.44,light rain
415,Inirida,CO,3.8653,-67.9239,74.3,95,70,1.99,broken clouds
416,San Antonio,US,29.4241,-98.4936,86.9,32,0,3.44,clear sky
417,Jagatsinghapur,IN,20.2667,86.1667,80.96,88,3,5.66,clear sky
418,Bireun,ID,5.203,96.7009,75.25,76,96,4.83,overcast clouds
419,Prien,US,30.1819,-93.2738,84.22,59,75,10.36,broken clouds
420,Muhos,FI,64.808,25.9931,53.89,46,95,8.63,overcast clouds
421,Peruibe,BR,-24.32,-46.9983,63.57,87,0,4.34,clear sky
422,Tommot,RU,58.9564,126.2925,46.96,56,84,4.83,broken clouds
423,Churapcha,RU,62.0025,132.4325,36.16,88,100,5.32,light rain
424,Fray Bentos,UY,-33.1325,-58.2956,53.73,89,100,13.0,overcast clouds
425,Saint-Francois,FR,46.4154,3.9054,50.68,93,0,3.44,clear sky
426,Cabedelo,BR,-6.9811,-34.8339,74.07,86,99,11.7,light rain
427,Santa Maria,BR,-29.6842,-53.8069,65.5,82,75,4.61,heavy intensity rain
428,Antofagasta,CL,-23.65,-70.4,58.28,84,40,5.97,scattered clouds
429,Itoman,JP,26.1247,127.6694,75.97,96,75,6.91,moderate rain
430,Kenora,CA,49.8167,-94.4337,63.57,45,75,11.5,broken clouds
431,Redmond,US,47.674,-122.1215,73.92,49,80,4.0,broken clouds
432,Blankenberge,BE,51.3131,3.1323,57.94,80,88,1.01,overcast clouds
433,Mehamn,NO,71.0357,27.8492,49.91,64,60,12.77,broken clouds
434,Coos Bay,US,43.3665,-124.2179,74.32,94,20,13.8,few clouds
435,Tank,PK,32.2217,70.3793,82.83,34,0,2.28,clear sky
436,Les Cayes,HT,18.2,-73.75,77.74,83,14,5.46,few clouds
437,Uyemskiy,RU,64.4743,40.8524,37.45,100,20,2.24,few clouds
438,Egvekinot,RU,66.3167,-179.1667,41.99,71,73,5.26,broken clouds
439,Port Huron,US,42.9709,-82.4249,65.05,81,75,16.11,broken clouds
440,Vence,FR,43.7216,7.1123,67.08,76,0,9.22,clear sky
441,Vila Franca Do Campo,PT,37.7167,-25.4333,65.19,75,60,4.9,broken clouds
442,Itapirapua,BR,-15.8233,-50.6133,71.11,44,52,5.91,broken clouds
443,Chimoio,MZ,-19.1164,33.4833,60.66,88,0,3.02,clear sky
444,Sterling,US,39.0062,-77.4286,67.91,59,100,8.99,overcast clouds
445,Torbay,CA,47.6666,-52.7314,43.29,63,20,9.22,few clouds
446,Cidreira,BR,-30.1811,-50.2056,65.55,86,32,4.79,scattered clouds
447,Chimore,BO,-16.9833,-65.1333,70.34,97,100,2.48,overcast clouds
448,Turtas,RU,58.9417,69.1325,62.67,68,93,9.44,overcast clouds
449,Bathsheba,BB,13.2167,-59.5167,81.21,78,40,16.11,scattered clouds
450,Tiruchchendur,IN,8.4833,78.1167,81.14,80,68,13.2,broken clouds
451,Padang,ID,-0.9492,100.3543,71.65,69,100,2.06,overcast clouds
452,Cabo San Lucas,MX,22.8909,-109.9124,83.61,50,0,4.61,clear sky
453,Ambon,ID,-3.6954,128.1814,77.14,88,40,2.3,scattered clouds
454,Mayo,US,38.8876,-76.5119,67.98,55,100,13.8,overcast clouds
455,Gejiu,CN,23.306,103.1635,60.1,92,90,1.86,overcast clouds
456,Beringovskiy,RU,63.05,179.3167,46.85,60,73,4.34,broken clouds
457,Nelson Bay,AU,-32.7167,152.15,64.11,89,93,1.01,overcast clouds
458,Iskateley,RU,67.6803,53.1512,49.46,72,100,19.66,overcast clouds
459,Tabou,CI,4.423,-7.3528,77.31,85,82,7.27,moderate rain
460,Upata,VE,8.0086,-62.3989,73.18,85,36,6.31,scattered clouds
461,Linxia,CN,35.6003,103.2064,58.62,81,100,1.54,overcast clouds
462,Kasiri,SL,8.9412,-13.1148,78.98,87,98,3.02,light rain
463,Vagay,RU,57.9375,69.0217,61.07,71,74,7.76,broken clouds
464,Half Moon Bay,US,37.4636,-122.4286,93.58,56,75,18.41,broken clouds
465,Limbang,MY,4.75,115.0,78.91,93,99,2.62,overcast clouds
466,Fortuna,US,40.5982,-124.1573,68.94,73,0,10.36,clear sky
467,Yuncheng,CN,35.0231,110.9928,67.84,31,99,3.94,overcast clouds
468,Bekhtery,UA,46.251,32.2927,57.74,76,86,11.25,overcast clouds
469,Ankang,CN,32.68,109.0172,66.9,87,100,3.0,overcast clouds
470,Ferme-Neuve,CA,46.7001,-75.4493,60.84,64,94,4.5,overcast clouds
471,Jizan,SA,17.3333,42.6667,86.94,73,42,2.17,scattered clouds
472,Fayaoue,NC,-20.65,166.5333,76.35,75,0,5.57,clear sky
473,Ust-Omchug,RU,61.15,149.6333,37.31,99,100,2.19,light rain
474,Christchurch,NZ,-43.5333,172.6333,50.92,70,100,10.36,overcast clouds
475,Touros,BR,-5.1989,-35.4608,75.9,88,78,10.85,broken clouds
476,Parry Sound,CA,45.3501,-80.033,64.45,59,100,5.95,overcast clouds
477,Udachnyy,RU,66.4167,112.4,37.45,74,98,15.7,overcast clouds
478,Nemuro,JP,43.3236,145.575,52.14,93,87,9.33,overcast clouds
479,Agadez,NE,19.75,10.25,86.4,11,91,9.19,overcast clouds
480,Quesnel,CA,52.9999,-122.5029,59.5,47,75,12.66,broken clouds
481,Luena,AO,-11.7833,19.9167,50.56,48,0,3.67,clear sky
482,Conde,BR,-7.2597,-34.9075,72.86,100,100,11.5,moderate rain
483,Marathon,US,44.9,-89.7668,51.55,92,100,8.05,overcast clouds
484,Quatre Cocos,MU,-20.2078,57.7625,69.91,65,47,8.37,scattered clouds
485,Talara,PE,-4.5772,-81.2719,70.56,73,0,13.8,clear sky
486,Inongo,CD,-1.95,18.2667,69.96,92,90,1.92,overcast clouds
487,Mandera,KE,3.9366,41.867,79.18,65,94,12.1,overcast clouds
488,Labrea,BR,-7.2586,-64.7981,79.52,72,81,2.28,broken clouds
489,Port-Gentil,GA,-0.7193,8.7815,75.16,94,20,10.36,few clouds
490,Santa Fe,AR,-31.6333,-60.7,54.01,81,100,8.01,light rain
491,Manono,CD,-7.3,27.4167,70.81,81,85,1.25,overcast clouds
492,Roma,US,43.2128,-75.4557,69.69,67,92,6.22,overcast clouds
493,Potsdam,DE,52.3989,13.0657,60.03,78,80,7.38,broken clouds
494,Kibaya,TZ,-5.3,36.5667,57.36,97,94,2.26,overcast clouds
495,Baruun-Urt,MN,46.6806,113.2792,64.69,22,4,6.64,clear sky
496,Hunchun,CN,42.8675,130.3581,53.44,98,100,3.62,moderate rain
497,Pokhara,NP,28.2333,83.9833,64.83,65,5,6.91,clear sky
498,Basoko,CD,1.2391,23.616,69.26,97,83,1.86,light rain
499,Fonte Boa,BR,-2.4959,-66.2662,75.83,89,75,2.98,broken clouds
500,Mogadishu,SO,2.0371,45.3438,79.18,87,100,13.6,overcast clouds
501,Ugoofaaru,MV,5.6667,73.0,82.24,78,100,10.8,overcast clouds
502,Kapoeta,SS,4.7717,33.5903,72.73,67,100,3.18,overcast clouds
503,Gamba,GA,-2.65,10.0,73.17,92,11,5.21,few clouds
504,Ballina,AU,-28.8667,153.5667,65.79,84,44,7.47,scattered clouds
505,Richards Bay,ZA,-28.783,32.0377,65.91,89,0,8.97,clear sky
506,Bandarbeyla,SO,9.4942,50.8122,78.48,90,51,22.12,broken clouds
507,Trapani,IT,37.8333,12.6667,75.88,50,95,3.06,overcast clouds
508,Metro,ID,-5.1131,105.3067,74.68,90,100,2.53,overcast clouds
509,San Ramon,US,37.7799,-121.978,99.64,38,0,16.11,clear sky
510,Saint-Pierre,RE,-21.3393,55.4781,71.28,64,0,8.05,clear sky
511,Matara,LK,5.9485,80.5353,77.67,90,75,6.89,broken clouds
512,Avera,US,33.194,-82.5271,81.91,79,94,7.65,overcast clouds
513,Teknaf,BD,20.8624,92.3058,79.95,85,21,3.09,few clouds
514,Turukhansk,RU,65.8167,87.9833,43.14,74,35,7.25,scattered clouds
515,San Quintin,MX,30.4833,-115.95,67.03,65,0,6.55,clear sky
516,Muswellbrook,AU,-32.2667,150.9,58.33,75,77,0.92,broken clouds
517,Vanimo,PG,-2.6741,141.3028,83.03,73,100,0.81,overcast clouds
518,Paragominas,BR,-2.9667,-47.4833,71.44,97,21,3.47,few clouds
519,Curillo,CO,1.0333,-75.9191,71.83,98,90,1.86,overcast clouds
520,Ilorin,NG,8.5,4.55,79.16,89,40,6.91,scattered clouds
521,Pyapon,MM,16.2833,95.6833,79.75,91,34,5.75,scattered clouds
522,Mayskiy,RU,47.6931,40.1025,54.81,76,26,5.08,scattered clouds
523,Calbuco,CL,-41.768,-73.1273,38.41,68,2,12.66,clear sky
524,Soyo,AO,-6.1349,12.3689,73.74,85,2,5.23,clear sky
525,Kungurtug,RU,50.5994,97.5228,60.73,62,93,0.58,moderate rain
526,Toora-Khem,RU,52.4675,96.11,61.63,70,95,1.83,overcast clouds
527,Sisimiut,GL,66.9395,-53.6735,36.88,69,59,2.24,broken clouds
528,Suntar,RU,62.1444,117.6319,44.15,54,100,7.34,overcast clouds
529,Nushki,PK,29.5542,66.0215,80.13,14,0,8.7,clear sky
530,Moose Factory,CA,51.2585,-80.6094,46.4,70,0,9.22,clear sky
531,Conceicao Do Araguaia,BR,-8.2578,-49.2647,73.47,64,5,2.91,clear sky
532,Jati,PK,24.3539,68.2671,81.59,82,19,16.22,few clouds
533,Parabel,RU,58.6978,81.4825,56.97,64,67,7.02,broken clouds
534,Thai Nguyen,VN,21.5928,105.8442,78.58,94,90,1.03,overcast clouds
535,Kazerun,IR,29.6195,51.6541,70.18,17,0,3.42,clear sky
536,Rosarito,MX,32.3333,-117.0333,77.63,69,23,5.37,few clouds
537,Maniitsoq,GL,65.4167,-52.9,33.22,64,61,15.28,broken clouds
538,Akureyri,IS,65.6835,-18.0878,40.93,87,100,10.36,overcast clouds
539,Zabid,YE,14.1951,43.3152,82.51,79,35,5.26,scattered clouds
540,Labuhan,ID,-6.8844,112.2051,79.54,84,100,3.13,overcast clouds
541,Ust-Tsilma,RU,65.441,52.1498,50.76,93,100,10.63,light rain
542,Luebo,CD,-5.35,21.4167,69.28,95,78,1.57,broken clouds
543,Pochutla,MX,15.7432,-96.4661,83.82,73,100,3.91,overcast clouds
544,Arrifes,PT,37.7667,-25.7,63.23,67,75,6.91,broken clouds
545,Baiyin,CN,36.5583,104.2081,61.21,67,99,1.99,overcast clouds
546,Dezful,IR,32.3811,48.4058,80.62,20,0,6.17,clear sky
547,Santarem,BR,-2.4431,-54.7083,80.73,89,0,4.61,clear sky
548,Petropavlovsk-Kamchatskiy,RU,53.0452,158.6483,39.79,93,75,6.71,light rain
549,Kloulklubed,PW,7.0419,134.2556,81.1,70,100,13.06,overcast clouds
550,Kapiri Mposhi,ZM,-13.9652,28.6809,52.61,58,0,3.6,clear sky
551,Depok,ID,-6.4,106.8186,78.19,86,100,2.37,overcast clouds
552,Elizabeth City,US,36.2946,-76.2511,64.42,97,100,11.65,overcast clouds
553,Santona,ES,43.4439,-3.4576,59.07,86,34,6.17,scattered clouds
